<OK
[COM2]
<OK
[COM2]
<OK
[COM2]
<OK
[COM2]
<OK
[COM2]
<OK
[COM2]#PSRDOPA,COM2,0,84.5,UNKNOWN,0,68.000,024c4000,1779,16410;9999.0000,9999.0000,9999.0000,9999.0000,9999.0000,10.0,0*2bff815d
#TIMEA,COM2,0,84.5,UNKNOWN,0,68.000,024c4000,9924,16410;INVALID,0.000000000,0.000333564,0.00000000000,0,0,0,0,0,0,INVALID*29eedd30
$GPGSV,1,1,00,,,,*79
#BESTXYZA,COM2,0,84.5,UNKNOWN,0,68.000,024c4000,44cf,16410;INSUFFICIENT_OBS,NONE,0.0000,0.0000,0.0000,0.0000,0.0000,0.0000,INSUFFICIENT_OBS,NONE,0.0000,0.0000,0.0000,0.0000,0.0000,0.0000,"",0.000,0.000,0.000,0,0,0,0,0,00,00,00*b60a3351
#HWMONITORA,COM2,0,84.5,UNKNOWN,0,68.000,024c4000,52db,16410;9,29.120880127,100,0.129304036,200,3.271062374,600,5.061782837,700,1.196581244,800,3.272283316,f00,1.822954893,1100,5.100854874,1500,30.586082458,1600*f96e4435
#PSRDOPA,COM2,0,84.5,UNKNOWN,0,69.000,024c4000,1779,16410;9999.0000,9999.0000,9999.0000,9999.0000,9999.0000,10.0,0*e29e6018
#TIMEA,COM2,0,84.5,UNKNOWN,0,69.000,024c4000,9924,16410;INVALID,0.000000000,0.000333564,0.00000000000,0,0,0,0,0,0,INVALID*e9b7b6aa
$GPGSV,1,1,00,,,,*79
#BESTXYZA,COM2,0,84.5,UNKNOWN,0,69.000,024c4000,44cf,16410;INSUFFICIENT_OBS,NONE,0.0000,0.0000,0.0000,0.0000,0.0000,0.0000,INSUFFICIENT_OBS,NONE,0.0000,0.0000,0.0000,0.0000,0.0000,0.0000,"",0.000,0.000,0.000,0,0,0,0,0,00,00,00*2cecec6a
#HWMONITORA,COM2,0,84.5,UNKNOWN,0,69.000,024c4000,52db,16410;9,29.120880127,100,0.129304036,200,3.271062374,600,5.063736439,700,1.192918181,800,3.271062374,f00,1.835775375,1100,5.100854874,1500,30.586082458,1600*0dd24cfe
#PSRDOPA,COM2,0,83.5,UNKNOWN,0,70.000,024c4000,1779,16410;9999.0000,9999.0000,9999.0000,9999.0000,9999.0000,10.0,0*43433df8
#TIMEA,COM2,0,83.5,UNKNOWN,0,70.000,024c4000,9924,16410;INVALID,0.000000000,0.000333564,0.00000000000,0,0,0,0,0,0,INVALID*05f67198
$GPGSV,1,1,00,,,,*79
#BESTXYZA,COM2,0,83.5,UNKNOWN,0,70.000,024c4000,44cf,16410;INSUFFICIENT_OBS,NONE,0.0000,0.0000,0.0000,0.0000,0.0000,0.0000,INSUFFICIENT_OBS,NONE,0.0000,0.0000,0.0000,0.0000,0.0000,0.0000,"",0.000,0.000,0.000,0,0,0,0,0,00,00,00*c829c458
#HWMONITORA,COM2,0,83.5,UNKNOWN,0,70.000,024c4000,52db,16410;9,29.120880127,100,0.129059836,200,3.271062374,600,5.061782837,700,1.192918181,800,3.271062374,f00,1.822954893,1100,5.100854874,1500,30.586082458,1600*ed979176
#PSRDOPA,COM2,0,83.5,UNKNOWN,0,71.000,024c4000,1779,16410;9999.0000,9999.0000,9999.0000,9999.0000,9999.0000,10.0,0*8a22dcbd
#TIMEA,COM2,0,83.5,UNKNOWN,0,71.000,024c4000,9924,16410;INVALID,0.000000000,0.000333564,0.00000000000,0,0,0,0,0,0,INVALID*c5af1a02
$GPGSV,1,1,00,,,,*79
#BESTXYZA,COM2,0,83.5,UNKNOWN,0,71.000,024c4000,44cf,16410;INSUFFICIENT_OBS,NONE,0.0000,0.0000,0.0000,0.0000,0.0000,0.0000,INSUFFICIENT_OBS,NONE,0.0000,0.0000,0.0000,0.0000,0.0000,0.0000,"",0.000,0.000,0.000,0,0,0,0,0,00,00,00*52cf1b63
#HWMONITORA,COM2,0,83.5,UNKNOWN,0,71.000,024c4000,52db,16410;9,29.120880127,100,0.129426137,200,3.269841433,600,5.061782837,700,1.192307711,800,3.271062374,f00,1.824786425,1100,5.100854874,1500,30.586082458,1600*b4d6bb53
#PSRDOPA,COM2,0,86.0,UNKNOWN,0,72.000,024c4000,1779,16410;9999.0000,9999.0000,9999.0000,9999.0000,9999.0000,10.0,0*5678cf7a
#TIMEA,COM2,0,86.0,UNKNOWN,0,72.000,024c4000,9924,16410;INVALID,0.000000000,0.000333564,0.00000000000,0,0,0,0,0,0,INVALID*096428e6
$GPGSV,1,1,00,,,,*79
#BESTXYZA,COM2,0,86.0,UNKNOWN,0,72.000,024c4000,44cf,16410;INSUFFICIENT_OBS,NONE,0.0000,0.0000,0.0000,0.0000,0.0000,0.0000,INSUFFICIENT_OBS,NONE,0.0000,0.0000,0.0000,0.0000,0.0000,0.0000,"",0.000,0.000,0.000,0,0,0,0,0,00,00,00*0a55705e
#HWMONITORA,COM2,0,86.0,UNKNOWN,0,72.000,024c4000,52db,16410;9,29.120880127,100,0.129059836,200,3.272283316,600,5.061782837,700,1.194139242,800,3.272283316,f00,1.830891371,1100,5.100854874,1500,30.586082458,1600*d2dd7ddf
#PSRDOPA,COM2,0,85.5,UNKNOWN,0,73.000,024c4000,1779,16410;9999.0000,9999.0000,9999.0000,9999.0000,9999.0000,10.0,0*255cc051
#TIMEA,COM2,0,85.5,UNKNOWN,0,73.000,024c4000,9924,16410;INVALID,0.000000000,0.000333564,0.00000000000,0,0,0,0,0,0,INVALID*66a444d4
$GPGSV,1,1,00,,,,*79
#BESTXYZA,COM2,0,85.5,UNKNOWN,0,73.000,024c4000,44cf,16410;INSUFFICIENT_OBS,NONE,0.0000,0.0000,0.0000,0.0000,0.0000,0.0000,INSUFFICIENT_OBS,NONE,0.0000,0.0000,0.0000,0.0000,0.0000,0.0000,"",0.000,0.000,0.000,0,0,0,0,0,00,00,00*17fa6ab7
#HWMONITORA,COM2,0,85.5,UNKNOWN,0,73.000,024c4000,52db,16410;9,29.120880127,100,0.129181936,200,3.269841433,600,5.061782837,700,1.192307711,800,3.269841433,f00,1.831501842,1100,5.100854874,1500,30.586082458,1600*7f3aa40b
#PSRDOPA,COM2,0,85.5,UNKNOWN,0,74.000,024c4000,1779,16410;9999.0000,9999.0000,9999.0000,9999.0000,9999.0000,10.0,0*36ea6c49
#TIMEA,COM2,0,85.5,UNKNOWN,0,74.000,024c4000,9924,16410;INVALID,0.000000000,0.000333564,0.00000000000,0,0,0,0,0,0,INVALID*4ab95cd1
$GPGSV,1,1,00,,,,*79
#BESTXYZA,COM2,0,85.5,UNKNOWN,0,74.000,024c4000,44cf,16410;INSUFFICIENT_OBS,NONE,0.0000,0.0000,0.0000,0.0000,0.0000,0.0000,INSUFFICIENT_OBS,NONE,0.0000,0.0000,0.0000,0.0000,0.0000,0.0000,"",0.000,0.000,0.000,0,0,0,0,0,00,00,00*65a87b94
#HWMONITORA,COM2,0,85.5,UNKNOWN,0,74.000,024c4000,52db,16410;9,29.120880127,100,0.129426137,200,3.271062374,600,5.061782837,700,1.194139242,800,3.272283316,f00,1.830280900,1100,5.100854874,1500,30.586082458,1600*e42eb9da
#PSRDOPA,COM2,0,86.5,UNKNOWN,0,75.000,024c4000,1779,16410;9999.0000,9999.0000,9999.0000,9999.0000,9999.0000,10.0,0*6155623f
#TIMEA,COM2,0,86.5,UNKNOWN,0,75.000,024c4000,9924,16410;INVALID,0.000000000,0.000333564,0.00000000000,0,0,0,0,0,0,INVALID*1b3cf3ba
$GPGSV,1,1,00,,,,*79
#BESTXYZA,COM2,0,86.5,UNKNOWN,0,75.000,024c4000,44cf,16410;INSUFFICIENT_OBS,NONE,0.0000,0.0000,0.0000,0.0000,0.0000,0.0000,INSUFFICIENT_OBS,NONE,0.0000,0.0000,0.0000,0.0000,0.0000,0.0000,"",0.000,0.000,0.000,0,0,0,0,0,00,00,00*4732c37e
#HWMONITORA,COM2,0,86.5,UNKNOWN,0,75.000,024c4000,52db,16410;9,29.120880127,100,0.129548237,200,3.269841433,600,5.061782837,700,1.194139242,800,3.269841433,f00,1.826007366,1100,5.100854874,1500,30.586082458,1600*c68707ce
#PSRDOPA,COM2,0,86.5,UNKNOWN,0,76.000,024c4000,1779,16410;9999.0000,9999.0000,9999.0000,9999.0000,9999.0000,10.0,0*e18647b1
#TIMEA,COM2,0,86.5,UNKNOWN,0,76.000,024c4000,9924,16410;INVALID,0.000000000,0.000333564,0.00000000000,0,0,0,0,0,0,INVALID*80a64955
$GPGSV,1,1,00,,,,*79
#BESTXYZA,COM2,0,86.5,UNKNOWN,0,76.000,024c4000,44cf,16410;INSUFFICIENT_OBS,NONE,0.0000,0.0000,0.0000,0.0000,0.0000,0.0000,INSUFFICIENT_OBS,NONE,0.0000,0.0000,0.0000,0.0000,0.0000,0.0000,"",0.000,0.000,0.000,0,0,0,0,0,00,00,00*3368a472
#HWMONITORA,COM2,0,86.5,UNKNOWN,0,76.000,024c4000,52db,16410;9,29.120880127,100,0.129181936,200,3.271062374,600,5.061782837,700,1.189865708,800,3.271062374,f00,1.826617837,1100,5.100854874,1500,30.586082458,1600*f1e29766
#PSRDOPA,COM2,0,82.5,UNKNOWN,0,77.000,024c4000,1779,16410;9999.0000,9999.0000,9999.0000,9999.0000,9999.0000,10.0,0*254034f1
#TIMEA,COM2,0,82.5,UNKNOWN,0,77.000,024c4000,9924,16410;INVALID,0.000000000,0.000333564,0.00000000000,0,0,0,0,0,0,INVALID*595f2a32
$GPGSV,1,1,00,,,,*79
#BESTXYZA,COM2,0,82.5,UNKNOWN,0,77.000,024c4000,44cf,16410;INSUFFICIENT_OBS,NONE,0.0000,0.0000,0.0000,0.0000,0.0000,0.0000,INSUFFICIENT_OBS,NONE,0.0000,0.0000,0.0000,0.0000,0.0000,0.0000,"",0.000,0.000,0.000,0,0,0,0,0,00,00,00*d2500834
#HWMONITORA,COM2,0,82.5,UNKNOWN,0,77.000,024c4000,52db,16410;9,29.120880127,100,0.129426137,200,3.269841433,600,5.061782837,700,1.192307711,800,3.272283316,f00,1.844932914,1100,5.100854874,1500,30.586082458,1600*aba0956c
#PSRDOPA,COM2,0,80.0,UNKNOWN,0,78.000,024c4000,1779,16410;9999.0000,9999.0000,9999.0000,9999.0000,9999.0000,10.0,0*04bcc6fb
#TIMEA,COM2,0,80.0,UNKNOWN,0,78.000,024c4000,9924,16410;INVALID,0.000000000,0.000333564,0.00000000000,0,0,0,0,0,0,INVALID*1e1135a5
$GPGSV,1,1,00,,,,*79
#BESTXYZA,COM2,0,80.0,UNKNOWN,0,78.000,024c4000,44cf,16410;INSUFFICIENT_OBS,NONE,0.0000,0.0000,0.0000,0.0000,0.0000,0.0000,INSUFFICIENT_OBS,NONE,0.0000,0.0000,0.0000,0.0000,0.0000,0.0000,"",0.000,0.000,0.000,0,0,0,0,0,00,00,00*4370edd4
#HWMONITORA,COM2,0,80.0,UNKNOWN,0,78.000,024c4000,52db,16410;9,29.120880127,100,0.129304036,200,3.268620491,600,5.061782837,700,1.192307711,800,3.272283316,f00,1.830891371,1100,5.100854874,1500,30.586082458,1600*e7ee766e
#PSRDOPA,COM2,0,80.0,UNKNOWN,0,79.000,024c4000,1779,16410;9999.0000,9999.0000,9999.0000,9999.0000,9999.0000,10.0,0*cddd27be
#TIMEA,COM2,0,80.0,UNKNOWN,0,79.000,024c4000,9924,16410;INVALID,0.000000000,0.000333564,0.00000000000,0,0,0,0,0,0,INVALID*de485e3f
$GPGSV,1,1,00,,,,*79
#BESTXYZA,COM2,0,80.0,UNKNOWN,0,79.000,024c4000,44cf,16410;INSUFFICIENT_OBS,NONE,0.0000,0.0000,0.0000,0.0000,0.0000,0.0000,INSUFFICIENT_OBS,NONE,0.0000,0.0000,0.0000,0.0000,0.0000,0.0000,"",0.000,0.000,0.000,0,0,0,0,0,00,00,00*d99632ef
#HWMONITORA,COM2,0,80.0,UNKNOWN,0,79.000,024c4000,52db,16410;9,29.120880127,100,0.129304036,200,3.271062374,600,5.061782837,700,1.194749713,800,3.272283316,f00,1.846153855,1100,5.100854874,1500,30.586082458,1600*5a5733e5
#PSRDOPA,COM2,0,86.0,UNKNOWN,0,80.000,024c4000,1779,16410;9999.0000,9999.0000,9999.0000,9999.0000,9999.0000,10.0,0*3f4b82bb
#TIMEA,COM2,0,86.0,UNKNOWN,0,80.000,024c4000,9924,16410;INVALID,0.000000000,0.000333564,0.00000000000,0,0,0,0,0,0,INVALID*a230098c
$GPGSV,1,1,00,,,,*79
#BESTXYZA,COM2,0,86.0,UNKNOWN,0,80.000,024c4000,44cf,16410;INSUFFICIENT_OBS,NONE,0.0000,0.0000,0.0000,0.0000,0.0000,0.0000,INSUFFICIENT_OBS,NONE,0.0000,0.0000,0.0000,0.0000,0.0000,0.0000,"",0.000,0.000,0.000,0,0,0,0,0,00,00,00*ca238715
#HWMONITORA,COM2,0,86.0,UNKNOWN,0,80.000,024c4000,52db,16410;9,29.120880127,100,0.129181936,200,3.271062374,600,5.061782837,700,1.192918181,800,3.271062374,f00,1.822344303,1100,5.100854874,1500,30.586082458,1600*a772bddb
#PSRDOPA,COM2,0,86.5,UNKNOWN,0,81.000,024c4000,1779,16410;9999.0000,9999.0000,9999.0000,9999.0000,9999.0000,10.0,0*d2b162a3
#TIMEA,COM2,0,86.5,UNKNOWN,0,81.000,024c4000,9924,16410;INVALID,0.000000000,0.000333564,0.00000000000,0,0,0,0,0,0,INVALID*5c2ca14f
$GPGSV,1,1,00,,,,*79
#BESTXYZA,COM2,0,86.5,UNKNOWN,0,81.000,024c4000,44cf,16410;INSUFFICIENT_OBS,NONE,0.0000,0.0000,0.0000,0.0000,0.0000,0.0000,INSUFFICIENT_OBS,NONE,0.0000,0.0000,0.0000,0.0000,0.0000,0.0000,"",0.000,0.000,0.000,0,0,0,0,0,00,00,00*6ff0fa2d
#HWMONITORA,COM2,0,86.5,UNKNOWN,0,81.000,024c4000,52db,16410;9,29.120880127,100,0.129426137,200,3.269841433,600,5.061782837,700,1.192307711,800,3.269841433,f00,1.826617837,1100,5.100854874,1500,30.586082458,1600*b1773609
#PSRDOPA,COM2,0,85.5,UNKNOWN,0,82.000,024c4000,1779,16410;9999.0000,9999.0000,9999.0000,9999.0000,9999.0000,10.0,0*ccbca81e
#TIMEA,COM2,0,85.5,UNKNOWN,0,82.000,024c4000,9924,16410;INVALID,0.000000000,0.000333564,0.00000000000,0,0,0,0,0,0,INVALID*566adf51
$GPGSV,1,1,00,,,,*79
#BESTXYZA,COM2,0,85.5,UNKNOWN,0,82.000,024c4000,44cf,16410;INSUFFICIENT_OBS,NONE,0.0000,0.0000,0.0000,0.0000,0.0000,0.0000,INSUFFICIENT_OBS,NONE,0.0000,0.0000,0.0000,0.0000,0.0000,0.0000,"",0.000,0.000,0.000,0,0,0,0,0,00,00,00*a3d6faf0
#HWMONITORA,COM2,0,85.5,UNKNOWN,0,82.000,024c4000,52db,16410;9,29.120880127,100,0.129304036,200,3.271062374,600,5.061782837,700,1.194749713,800,3.269841433,f00,1.827228308,1100,5.100854874,1500,30.586082458,1600*6f668838
#PSRDOPA,COM2,0,85.5,UNKNOWN,0,83.000,024c4000,1779,16410;9999.0000,9999.0000,9999.0000,9999.0000,9999.0000,10.0,0*05dd495b
#TIMEA,COM2,0,85.5,UNKNOWN,0,83.000,024c4000,9924,16410;INVALID,0.000000000,0.000333564,0.00000000000,0,0,0,0,0,0,INVALID*9633b4cb
$GPGSV,1,1,00,,,,*79
#BESTXYZA,COM2,0,85.5,UNKNOWN,0,83.000,024c4000,44cf,16410;INSUFFICIENT_OBS,NONE,0.0000,0.0000,0.0000,0.0000,0.0000,0.0000,INSUFFICIENT_OBS,NONE,0.0000,0.0000,0.0000,0.0000,0.0000,0.0000,"",0.000,0.000,0.000,0,0,0,0,0,00,00,00*393025cb
#HWMONITORA,COM2,0,85.5,UNKNOWN,0,83.000,024c4000,52db,16410;9,29.120880127,100,0.129304036,200,3.271062374,600,5.061782837,700,1.192918181,800,3.269841433,f00,1.841269851,1100,5.100854874,1500,30.586082458,1600*511f6102
#PSRDOPA,COM2,0,85.5,UNKNOWN,0,84.000,024c4000,1779,16410;9999.0000,9999.0000,9999.0000,9999.0000,9999.0000,10.0,0*166be543
#TIMEA,COM2,0,85.5,UNKNOWN,0,84.000,024c4000,9924,16410;INVALID,0.000000000,0.000333564,0.00000000000,0,0,0,0,0,0,INVALID*ba2eacce
$GPGSV,1,1,00,,,,*79
#BESTXYZA,COM2,0,85.5,UNKNOWN,0,84.000,024c4000,44cf,16410;INSUFFICIENT_OBS,NONE,0.0000,0.0000,0.0000,0.0000,0.0000,0.0000,INSUFFICIENT_OBS,NONE,0.0000,0.0000,0.0000,0.0000,0.0000,0.0000,"",0.000,0.000,0.000,0,0,0,0,0,00,00,00*4b6234e8
#HWMONITORA,COM2,0,84.5,UNKNOWN,0,84.000,024c4000,52db,16410;9,29.120880127,100,0.129426137,200,3.271062374,600,5.061782837,700,1.194749713,800,3.269841433,f00,1.840659380,1100,5.098901272,1500,30.586082458,1600*27355b71
#PSRDOPA,COM2,0,84.5,UNKNOWN,0,85.000,024c4000,1779,16410;9999.0000,9999.0000,9999.0000,9999.0000,9999.0000,10.0,0*aabfa117
#TIMEA,COM2,0,84.5,UNKNOWN,0,85.000,024c4000,9924,16410;INVALID,0.000000000,0.000333564,0.00000000000,0,0,0,0,0,0,INVALID*0ac384fb
$GPGSV,1,1,00,,,,*79
#BESTXYZA,COM2,0,84.5,UNKNOWN,0,85.000,024c4000,44cf,16410;INSUFFICIENT_OBS,NONE,0.0000,0.0000,0.0000,0.0000,0.0000,0.0000,INSUFFICIENT_OBS,NONE,0.0000,0.0000,0.0000,0.0000,0.0000,0.0000,"",0.000,0.000,0.000,0,0,0,0,0,00,00,00*b9af369c
#HWMONITORA,COM2,0,81.0,UNKNOWN,0,85.000,024c4000,52db,16410;9,29.120880127,100,0.129426137,200,3.269841433,600,5.061782837,700,1.196581244,800,3.272283316,f00,1.822954893,1100,5.100854874,1500,30.586082458,1600*51473ffd
#PSRDOPA,COM2,0,81.0,UNKNOWN,0,86.000,024c4000,1779,16410;9999.0000,9999.0000,9999.0000,9999.0000,9999.0000,10.0,0*76e5b2d0
#TIMEA,COM2,0,81.0,UNKNOWN,0,86.000,024c4000,9924,16410;INVALID,0.000000000,0.000333564,0.00000000000,0,0,0,0,0,0,INVALID*c608b61f
$GPGSV,1,1,00,,,,*79
#BESTXYZA,COM2,0,81.0,UNKNOWN,0,86.000,024c4000,44cf,16410;INSUFFICIENT_OBS,NONE,0.0000,0.0000,0.0000,0.0000,0.0000,0.0000,INSUFFICIENT_OBS,NONE,0.0000,0.0000,0.0000,0.0000,0.0000,0.0000,"",0.000,0.000,0.000,0,0,0,0,0,00,00,00*e1355da1
#HWMONITORA,COM2,0,81.0,UNKNOWN,0,86.000,024c4000,52db,16410;9,29.120880127,100,0.129426137,200,3.269841433,600,5.061782837,700,1.196581244,800,3.272283316,f00,1.822954893,1100,5.100854874,1500,30.586082458,1600*bf6bef1a
#PSRDOPA,COM2,0,81.0,UNKNOWN,0,87.000,024c4000,1779,16410;9999.0000,9999.0000,9999.0000,9999.0000,9999.0000,10.0,0*bf845395
#TIMEA,COM2,0,81.0,UNKNOWN,0,87.000,024c4000,9924,16410;INVALID,0.000000000,0.000333564,0.00000000000,0,0,0,0,0,0,INVALID*0651dd85
$GPGSV,1,1,00,,,,*79
#BESTXYZA,COM2,0,81.0,UNKNOWN,0,87.000,024c4000,44cf,16410;INSUFFICIENT_OBS,NONE,0.0000,0.0000,0.0000,0.0000,0.0000,0.0000,INSUFFICIENT_OBS,NONE,0.0000,0.0000,0.0000,0.0000,0.0000,0.0000,"",0.000,0.000,0.000,0,0,0,0,0,00,00,00*7bd3829a
#HWMONITORA,COM2,0,81.0,UNKNOWN,0,87.000,024c4000,52db,16410;9,29.120880127,100,0.129304036,200,3.269841433,600,5.061782837,700,1.193528652,800,3.271062374,f00,1.807692289,1100,5.100854874,1500,30.586082458,1600*ecea52dd
#PSRDOPA,COM2,0,84.5,UNKNOWN,0,88.000,024c4000,1779,16410;9999.0000,9999.0000,9999.0000,9999.0000,9999.0000,10.0,0*0d01dca9
#TIMEA,COM2,0,84.5,UNKNOWN,0,88.000,024c4000,9924,16410;INVALID,0.000000000,0.000333564,0.00000000000,0,0,0,0,0,0,INVALID*c9630e1e
$GPGSV,1,1,00,,,,*79
#BESTXYZA,COM2,0,84.5,UNKNOWN,0,88.000,024c4000,44cf,16410;INSUFFICIENT_OBS,NONE,0.0000,0.0000,0.0000,0.0000,0.0000,0.0000,INSUFFICIENT_OBS,NONE,0.0000,0.0000,0.0000,0.0000,0.0000,0.0000,"",0.000,0.000,0.000,0,0,0,0,0,00,00,00*295173d6
#HWMONITORA,COM2,0,84.5,UNKNOWN,0,88.000,024c4000,52db,16410;9,29.120880127,100,0.129426137,200,3.271062374,600,5.061782837,700,1.195360184,800,3.272283316,f00,1.826617837,1100,5.100854874,1500,30.586082458,1600*657bf369
#PSRDOPA,COM2,0,85.0,UNKNOWN,0,89.000,024c4000,1779,16410;9999.0000,9999.0000,9999.0000,9999.0000,9999.0000,10.0,0*954e99a0
#TIMEA,COM2,0,85.0,UNKNOWN,0,89.000,024c4000,9924,16410;INVALID,0.000000000,0.000333564,0.00000000000,0,0,0,0,0,0,INVALID*47cbe572
$GPGSV,1,1,00,,,,*79
#BESTXYZA,COM2,0,85.0,UNKNOWN,0,89.000,024c4000,44cf,16410;INSUFFICIENT_OBS,NONE,0.0000,0.0000,0.0000,0.0000,0.0000,0.0000,INSUFFICIENT_OBS,NONE,0.0000,0.0000,0.0000,0.0000,0.0000,0.0000,"",0.000,0.000,0.000,0,0,0,0,0,00,00,00*e4a9d3a1
#HWMONITORA,COM2,0,86.0,UNKNOWN,0,89.000,024c4000,52db,16410;9,29.120880127,100,0.129426137,200,3.271062374,600,5.061782837,700,1.195360184,800,3.272283316,f00,1.826617837,1100,5.100854874,1500,30.586082458,1600*247c5dfc
#PSRDOPA,COM2,0,85.0,UNKNOWN,0,90.000,024c4000,1779,16410;9999.0000,9999.0000,9999.0000,9999.0000,9999.0000,10.0,0*a7eab976
#TIMEA,COM2,0,85.0,UNKNOWN,0,90.000,024c4000,9924,16410;INVALID,0.000000000,0.000333564,0.00000000000,0,0,0,0,0,0,INVALID*23f6ee4c
$GPGSV,1,1,00,,,,*79
#BESTXYZA,COM2,0,85.0,UNKNOWN,0,90.000,024c4000,44cf,16410;INSUFFICIENT_OBS,NONE,0.0000,0.0000,0.0000,0.0000,0.0000,0.0000,INSUFFICIENT_OBS,NONE,0.0000,0.0000,0.0000,0.0000,0.0000,0.0000,"",0.000,0.000,0.000,0,0,0,0,0,00,00,00*c3ceef3f
#HWMONITORA,COM2,0,85.0,UNKNOWN,0,90.000,024c4000,52db,16410;9,29.120880127,100,0.129304036,200,3.272283316,600,5.061782837,700,1.194139242,800,3.269841433,f00,1.828449368,1100,5.100854874,1500,30.586082458,1600*5d598e53
#PSRDOPA,COM2,0,85.0,UNKNOWN,0,91.000,024c4000,1779,16410;9999.0000,9999.0000,9999.0000,9999.0000,9999.0000,10.0,0*6e8b5833
#TIMEA,COM2,0,85.0,UNKNOWN,0,91.000,024c4000,9924,16410;INVALID,0.000000000,0.000333564,0.00000000000,0,0,0,0,0,0,INVALID*e3af85d6
$GPGSV,1,1,00,,,,*79
#BESTXYZA,COM2,0,85.0,UNKNOWN,0,91.000,024c4000,44cf,16410;INSUFFICIENT_OBS,NONE,0.0000,0.0000,0.0000,0.0000,0.0000,0.0000,INSUFFICIENT_OBS,NONE,0.0000,0.0000,0.0000,0.0000,0.0000,0.0000,"",0.000,0.000,0.000,0,0,0,0,0,00,00,00*59283004
#HWMONITORA,COM2,0,85.0,UNKNOWN,0,91.000,024c4000,52db,16410;9,29.120880127,100,0.129059836,200,3.269841433,600,5.061782837,700,1.194139242,800,3.271062374,f00,1.831501842,1100,5.100854874,1500,30.586082458,1600*21702312
#PSRDOPA,COM2,0,86.0,UNKNOWN,0,92.000,024c4000,1779,16410;9999.0000,9999.0000,9999.0000,9999.0000,9999.0000,10.0,0*7086928e
#TIMEA,COM2,0,86.0,UNKNOWN,0,92.000,024c4000,9924,16410;INVALID,0.000000000,0.000333564,0.00000000000,0,0,0,0,0,0,INVALID*e9e9fbc8
$GPGSV,1,1,00,,,,*79
#BESTXYZA,COM2,0,86.0,UNKNOWN,0,92.000,024c4000,44cf,16410;INSUFFICIENT_OBS,NONE,0.0000,0.0000,0.0000,0.0000,0.0000,0.0000,INSUFFICIENT_OBS,NONE,0.0000,0.0000,0.0000,0.0000,0.0000,0.0000,"",0.000,0.000,0.000,0,0,0,0,0,00,00,00*950e30d9
#HWMONITORA,COM2,0,86.0,UNKNOWN,0,92.000,024c4000,52db,16410;9,29.120880127,100,0.129304036,200,3.272283316,600,5.061782837,700,1.192918181,800,3.269841433,f00,1.831501842,1100,5.100854874,1500,30.586082458,1600*9b84a7cd
#PSRDOPA,COM2,0,86.0,UNKNOWN,0,93.000,024c4000,1779,16410;9999.0000,9999.0000,9999.0000,9999.0000,9999.0000,10.0,0*b9e773cb
#TIMEA,COM2,0,86.0,UNKNOWN,0,93.000,024c4000,9924,16410;INVALID,0.000000000,0.000333564,0.00000000000,0,0,0,0,0,0,INVALID*29b09052
$GPGSV,1,1,00,,,,*79
#BESTXYZA,COM2,0,86.0,UNKNOWN,0,93.000,024c4000,44cf,16410;INSUFFICIENT_OBS,NONE,0.0000,0.0000,0.0000,0.0000,0.0000,0.0000,INSUFFICIENT_OBS,NONE,0.0000,0.0000,0.0000,0.0000,0.0000,0.0000,"",0.000,0.000,0.000,0,0,0,0,0,00,00,00*0fe8efe2
#HWMONITORA,COM2,0,86.0,UNKNOWN,0,93.000,024c4000,52db,16410;9,29.120880127,100,0.129304036,200,3.269841433,600,5.061782837,700,1.194139242,800,3.269841433,f00,1.822344303,1100,5.100854874,1500,30.586082458,1600*970d07b6
#PSRDOPA,COM2,0,83.5,UNKNOWN,0,94.000,024c4000,1779,16410;9999.0000,9999.0000,9999.0000,9999.0000,9999.0000,10.0,0*f6d8e99a
#TIMEA,COM2,0,83.5,UNKNOWN,0,94.000,024c4000,9924,16410;INVALID,0.000000000,0.000333564,0.00000000000,0,0,0,0,0,0,INVALID*52fc005c
$GPGSV,1,1,00,,,,*79
#BESTXYZA,COM2,0,83.5,UNKNOWN,0,94.000,024c4000,44cf,16410;INSUFFICIENT_OBS,NONE,0.0000,0.0000,0.0000,0.0000,0.0000,0.0000,INSUFFICIENT_OBS,NONE,0.0000,0.0000,0.0000,0.0000,0.0000,0.0000,"",0.000,0.000,0.000,0,0,0,0,0,00,00,00*517af2f0
#HWMONITORA,COM2,0,83.0,UNKNOWN,0,94.000,024c4000,52db,16410;9,29.120880127,100,0.129304036,200,3.269841433,600,5.061782837,700,1.194139242,800,3.271062374,f00,1.826007366,1100,5.100854874,1500,30.586082458,1600*e68809e6
#PSRDOPA,COM2,0,83.0,UNKNOWN,0,95.000,024c4000,1779,16410;9999.0000,9999.0000,9999.0000,9999.0000,9999.0000,10.0,0*1b220982
#TIMEA,COM2,0,83.0,UNKNOWN,0,95.000,024c4000,9924,16410;INVALID,0.000000000,0.000333564,0.00000000000,0,0,0,0,0,0,INVALID*ace0a89f
$GPGSV,1,1,00,,,,*79
#BESTXYZA,COM2,0,83.0,UNKNOWN,0,95.000,024c4000,44cf,16410;INSUFFICIENT_OBS,NONE,0.0000,0.0000,0.0000,0.0000,0.0000,0.0000,INSUFFICIENT_OBS,NONE,0.0000,0.0000,0.0000,0.0000,0.0000,0.0000,"",0.000,0.000,0.000,0,0,0,0,0,00,00,00*f4a98fc8
#HWMONITORA,COM2,0,83.0,UNKNOWN,0,95.000,024c4000,52db,16410;9,29.120880127,100,0.129304036,200,3.269841433,600,5.061782837,700,1.194139242,800,3.271062374,f00,1.826007366,1100,5.100854874,1500,30.586082458,1600*bc93b9bb
#PSRDOPA,COM2,0,83.0,UNKNOWN,0,96.000,024c4000,1779,16410;9999.0000,9999.0000,9999.0000,9999.0000,9999.0000,10.0,0*9bf12c0c
#TIMEA,COM2,0,83.0,UNKNOWN,0,96.000,024c4000,9924,16410;INVALID,0.000000000,0.000333564,0.00000000000,0,0,0,0,0,0,INVALID*377a1270
$GPGSV,1,1,00,,,,*79
#BESTXYZA,COM2,0,83.0,UNKNOWN,0,96.000,024c4000,44cf,16410;INSUFFICIENT_OBS,NONE,0.0000,0.0000,0.0000,0.0000,0.0000,0.0000,INSUFFICIENT_OBS,NONE,0.0000,0.0000,0.0000,0.0000,0.0000,0.0000,"",0.000,0.000,0.000,0,0,0,0,0,00,00,00*80f3e8c4
#HWMONITORA,COM2,0,82.0,UNKNOWN,0,96.000,024c4000,52db,16410;9,29.120880127,100,0.129548237,200,3.272283316,600,5.061782837,700,1.194139242,800,3.271062374,f00,1.835164905,1100,5.098901272,1500,30.586082458,1600*a1798f1d
#PSRDOPA,COM2,0,82.0,COARSEADJUSTING,2159,68347.500,024c4000,1779,16410;9999.0000,9999.0000,9999.0000,9999.0000,9999.0000,10.0,0*63d7dda7
#HWMONITORA,COM2,0,82.0,COARSEADJUSTING,2159,68347.500,024c4000,52db,16410;9,29.120880127,100,0.129181936,200,3.272283316,600,5.061782837,700,1.193528652,800,3.273504257,f00,1.822344303,1100,5.100854874,1500,30.586082458,1600*359daa72
#PSRDOPA,COM2,0,82.0,COARSESTEERING,2159,68348.000,024c4000,1779,16410;9999.0000,9999.0000,9999.0000,9999.0000,9999.0000,10.0,0*01ee6f9a
#TIMEA,COM2,0,82.0,COARSESTEERING,2159,68348.000,024c4000,9924,16410;INVALID,0.000000000,0.000333564,-18.00000000000,2021,5,23,18,58,50000,WARNING*bc173eba
$GPGSV,1,1,00,,,,*79
#BESTXYZA,COM2,0,82.0,COARSESTEERING,2159,68348.000,024c4000,44cf,16410;INSUFFICIENT_OBS,NONE,0.0000,0.0000,0.0000,0.0000,0.0000,0.0000,INSUFFICIENT_OBS,NONE,0.0000,0.0000,0.0000,0.0000,0.0000,0.0000,"",0.000,0.000,0.000,0,0,0,0,0,00,00,00*a4408c95
#HWMONITORA,COM2,0,82.0,COARSESTEERING,2159,68348.000,024c4000,52db,16410;9,29.120880127,100,0.129181936,200,3.272283316,600,5.061782837,700,1.193528652,800,3.273504257,f00,1.822344303,1100,5.100854874,1500,30.586082458,1600*80ce4ddd
#PSRDOPA,COM2,0,82.0,COARSESTEERING,2159,68349.000,024c4000,1779,16410;9999.0000,9999.0000,9999.0000,9999.0000,9999.0000,10.0,0*c88f8edf
#TIMEA,COM2,0,82.0,COARSESTEERING,2159,68349.000,024c4000,9924,16410;INVALID,0.000000000,0.000333564,-18.00000000000,2021,5,23,18,58,51000,WARNING*2f69a71e
$GPGSV,1,1,00,,,,*79
#BESTXYZA,COM2,0,82.0,COARSESTEERING,2159,68349.000,024c4000,44cf,16410;INSUFFICIENT_OBS,NONE,0.0000,0.0000,0.0000,0.0000,0.0000,0.0000,INSUFFICIENT_OBS,NONE,0.0000,0.0000,0.0000,0.0000,0.0000,0.0000,"",0.000,0.000,0.000,0,0,0,0,0,00,00,00*3ea653ae
#HWMONITORA,COM2,0,82.0,COARSESTEERING,2159,68349.000,024c4000,52db,16410;9,29.120880127,100,0.129181936,200,3.269841433,600,5.061782837,700,1.193528652,800,3.271062374,f00,1.824175835,1100,5.100854874,1500,30.586082458,1600*f4c8e350
#PSRDOPA,COM2,0,84.5,COARSESTEERING,2159,68350.000,024c4000,1779,16410;9999.0000,9999.0000,9999.0000,9999.0000,9999.0000,10.0,0*965aaded
#TIMEA,COM2,0,84.5,COARSESTEERING,2159,68350.000,024c4000,9924,16410;INVALID,0.000000000,0.000333564,-18.00000000000,2021,5,23,18,58,52000,WARNING*a298e25f
$GPGSV,1,1,00,,,,*79
#BESTXYZA,COM2,0,84.5,COARSESTEERING,2159,68350.000,024c4000,44cf,16410;INSUFFICIENT_OBS,NONE,0.0000,0.0000,0.0000,0.0000,0.0000,0.0000,INSUFFICIENT_OBS,NONE,0.0000,0.0000,0.0000,0.0000,0.0000,0.0000,"",0.000,0.000,0.000,0,0,0,0,0,00,00,00*73499ca8
#HWMONITORA,COM2,0,84.5,COARSESTEERING,2159,68350.000,024c4000,52db,16410;9,29.120880127,100,0.129304036,200,3.271062374,600,5.061782837,700,1.195360184,800,3.269841433,f00,1.826617837,1100,5.100854874,1500,30.586082458,1600*c18f79bd
#PSRDOPA,COM2,0,84.0,COARSESTEERING,2159,68351.000,024c4000,1779,16410;9999.0000,9999.0000,9999.0000,9999.0000,9999.0000,10.0,0*36b88272
#TIMEA,COM2,0,84.0,COARSESTEERING,2159,68351.000,024c4000,9924,16410;INVALID,0.000000000,0.000333564,-18.00000000000,2021,5,23,18,58,53000,WARNING*1c189457
$GPGSV,1,1,00,,,,*79
#BESTXYZA,COM2,0,84.0,COARSESTEERING,2159,68351.000,024c4000,44cf,16410;INSUFFICIENT_OBS,NONE,0.0000,0.0000,0.0000,0.0000,0.0000,0.0000,INSUFFICIENT_OBS,NONE,0.0000,0.0000,0.0000,0.0000,0.0000,0.0000,"",0.000,0.000,0.000,0,0,0,0,0,00,00,00*006d3b31
#HWMONITORA,COM2,0,84.0,COARSESTEERING,2159,68351.000,024c4000,52db,16410;9,29.120880127,100,0.129304036,200,3.272283316,600,5.061782837,700,1.194139242,800,3.272283316,f00,1.836996317,1100,5.100854874,1500,30.586082458,1600*a5e21205
#PSRDOPA,COM2,0,84.0,COARSESTEERING,2159,68352.000,024c4000,1779,16410;9999.0000,9999.0000,9999.0000,9999.0000,9999.0000,10.0,0*b66ba7fc
#TIMEA,COM2,0,84.0,COARSESTEERING,2159,68352.000,024c4000,9924,16410;INVALID,0.000000000,0.000333564,-18.00000000000,2021,5,23,18,58,54000,WARNING*71ec0385
$GPGSV,1,1,00,,,,*79
#BESTXYZA,COM2,0,84.0,COARSESTEERING,2159,68352.000,024c4000,44cf,16410;INSUFFICIENT_OBS,NONE,0.0000,0.0000,0.0000,0.0000,0.0000,0.0000,INSUFFICIENT_OBS,NONE,0.0000,0.0000,0.0000,0.0000,0.0000,0.0000,"",0.000,0.000,0.000,0,0,0,0,0,00,00,00*74375c3d
#HWMONITORA,COM2,0,84.0,COARSESTEERING,2159,68352.000,024c4000,52db,16410;9,29.120880127,100,0.129304036,200,3.272283316,600,5.061782837,700,1.192918181,800,3.269841433,f00,1.838827848,1100,5.100854874,1500,30.586082458,1600*b4161710
#PSRDOPA,COM2,0,85.0,COARSESTEERING,2159,68353.000,024c4000,1779,16410;9999.0000,9999.0000,9999.0000,9999.0000,9999.0000,10.0,0*c87266f3
#TIMEA,COM2,0,85.0,COARSESTEERING,2159,68353.000,024c4000,9924,16410;INVALID,0.000000000,0.000333564,-18.00000000000,2021,5,23,18,58,55000,WARNING*80763bae
$GPGSV,1,1,00,,,,*79
#BESTXYZA,COM2,0,85.0,COARSESTEERING,2159,68353.000,024c4000,44cf,16410;INSUFFICIENT_OBS,NONE,0.0000,0.0000,0.0000,0.0000,0.0000,0.0000,INSUFFICIENT_OBS,NONE,0.0000,0.0000,0.0000,0.0000,0.0000,0.0000,"",0.000,0.000,0.000,0,0,0,0,0,00,00,00*d1b2bf8d
#HWMONITORA,COM2,0,85.0,COARSESTEERING,2159,68353.000,024c4000,52db,16410;9,29.120880127,100,0.129304036,200,3.272283316,600,5.061782837,700,1.193528652,800,3.272283316,f00,1.818070889,1100,5.100854874,1500,30.586082458,1600*42ab1711
#PSRDOPA,COM2,0,82.5,COARSESTEERING,2159,68354.000,024c4000,1779,16410;9999.0000,9999.0000,9999.0000,9999.0000,9999.0000,10.0,0*00cde945
#TIMEA,COM2,0,82.5,COARSESTEERING,2159,68354.000,024c4000,9924,16410;INVALID,0.000000000,0.000333564,-18.00000000000,2021,5,23,18,58,56000,WARNING*17db4d6f
$GPGSV,1,1,00,,,,*79
#BESTXYZA,COM2,0,82.5,COARSESTEERING,2159,68354.000,024c4000,44cf,16410;INSUFFICIENT_OBS,NONE,0.0000,0.0000,0.0000,0.0000,0.0000,0.0000,INSUFFICIENT_OBS,NONE,0.0000,0.0000,0.0000,0.0000,0.0000,0.0000,"",0.000,0.000,0.000,0,0,0,0,0,00,00,00*f60b61bd
#HWMONITORA,COM2,0,82.5,COARSESTEERING,2159,68354.000,024c4000,52db,16410;9,29.120880127,100,0.129304036,200,3.271062374,600,5.061782837,700,1.193528652,800,3.271062374,f00,1.832722902,1100,5.100854874,1500,30.586082458,1600*d68e66db
#PSRDOPA,COM2,0,82.5,COARSESTEERING,2159,68355.000,024c4000,1779,16410;9999.0000,9999.0000,9999.0000,9999.0000,9999.0000,10.0,0*c9ac0800
#TIMEA,COM2,0,82.5,COARSESTEERING,2159,68355.000,024c4000,9924,16410;INVALID,0.000000000,0.000333564,-18.00000000000,2021,5,23,18,58,57000,WARNING*84a5d4cb

<OK
[COM2]
<OK
[COM2]
<OK
[COM2]
<OK
[COM2]
<OK
[COM2]#PSRDOPA,COM2,0,89.0,COARSESTEERING,2159,68409.000,024c4000,1779,16410;9999.0000,9999.0000,9999.0000,9999.0000,9999.0000,10.0,0*3564ce03
#TIMEA,COM2,0,89.0,COARSESTEERING,2159,68409.000,024c4000,9924,16410;INVALID,0.000000000,0.000333564,-18.00000000000,2021,5,23,18,59,51000,WARNING*d61577f1
$GPGSV,1,1,00,,,,*79
#BESTXYZA,COM2,0,89.0,COARSESTEERING,2159,68409.000,024c4000,44cf,16410;INSUFFICIENT_OBS,NONE,0.0000,0.0000,0.0000,0.0000,0.0000,0.0000,INSUFFICIENT_OBS,NONE,0.0000,0.0000,0.0000,0.0000,0.0000,0.0000,"",0.000,0.000,0.000,0,0,0,0,0,00,00,00*20a5e4c4
#HWMONITORA,COM2,0,89.0,COARSESTEERING,2159,68409.000,024c4000,52db,16410;9,30.036634445,100,0.129304036,200,3.272283316,600,5.061782837,700,1.195360184,800,3.272283316,f00,1.832722902,1100,5.100854874,1500,31.440782547,1600*a52d913e
#PSRDOPA,COM2,0,85.0,COARSESTEERING,2159,68410.000,024c4000,1779,16410;9999.0000,9999.0000,9999.0000,9999.0000,9999.0000,10.0,0*0c2574a9
#TIMEA,COM2,0,85.0,COARSESTEERING,2159,68410.000,024c4000,9924,16410;INVALID,0.000000000,0.000333564,-18.00000000000,2021,5,23,18,59,52000,WARNING*12149ef8
$GPGSV,1,1,00,,,,*79
#BESTXYZA,COM2,0,85.0,COARSESTEERING,2159,68410.000,024c4000,44cf,16410;INSUFFICIENT_OBS,NONE,0.0000,0.0000,0.0000,0.0000,0.0000,0.0000,INSUFFICIENT_OBS,NONE,0.0000,0.0000,0.0000,0.0000,0.0000,0.0000,"",0.000,0.000,0.000,0,0,0,0,0,00,00,00*da26c86f
#HWMONITORA,COM2,0,85.0,COARSESTEERING,2159,68410.000,024c4000,52db,16410;9,30.036634445,100,0.129304036,200,3.271062374,600,5.061782837,700,1.192918181,800,3.271062374,f00,1.830280900,1100,5.100854874,1500,31.440782547,1600*4c59902c
#PSRDOPA,COM2,0,85.0,COARSESTEERING,2159,68411.000,024c4000,1779,16410;9999.0000,9999.0000,9999.0000,9999.0000,9999.0000,10.0,0*c54495ec
#TIMEA,COM2,0,85.0,COARSESTEERING,2159,68411.000,024c4000,9924,16410;INVALID,0.000000000,0.000333564,-18.00000000000,2021,5,23,18,59,53000,WARNING*816a075c
$GPGSV,1,1,00,,,,*79
#BESTXYZA,COM2,0,85.0,COARSESTEERING,2159,68411.000,024c4000,44cf,16410;INSUFFICIENT_OBS,NONE,0.0000,0.0000,0.0000,0.0000,0.0000,0.0000,INSUFFICIENT_OBS,NONE,0.0000,0.0000,0.0000,0.0000,0.0000,0.0000,"",0.000,0.000,0.000,0,0,0,0,0,00,00,00*40c01754
#HWMONITORA,COM2,0,85.0,COARSESTEERING,2159,68411.000,024c4000,52db,16410;9,30.036634445,100,0.129181936,200,3.272283316,600,5.061782837,700,1.196581244,800,3.269841433,f00,1.819291830,1100,5.100854874,1500,31.440782547,1600*65de31e0
#PSRDOPA,COM2,0,86.0,COARSESTEERING,2159,68412.000,024c4000,1779,16410;9999.0000,9999.0000,9999.0000,9999.0000,9999.0000,10.0,0*476ed6fd
#TIMEA,COM2,0,86.0,COARSESTEERING,2159,68412.000,024c4000,9924,16410;INVALID,0.000000000,0.000333564,-18.00000000000,2021,5,23,18,59,54000,WARNING*4bb3721f
$GPGSV,1,1,00,,,,*79
#BESTXYZA,COM2,0,86.0,COARSESTEERING,2159,68412.000,024c4000,44cf,16410;INSUFFICIENT_OBS,NONE,0.0000,0.0000,0.0000,0.0000,0.0000,0.0000,INSUFFICIENT_OBS,NONE,0.0000,0.0000,0.0000,0.0000,0.0000,0.0000,"",0.000,0.000,0.000,0,0,0,0,0,00,00,00*753f35c5
#HWMONITORA,COM2,0,86.0,COARSESTEERING,2159,68412.000,024c4000,52db,16410;9,30.036634445,100,0.129670337,200,3.271062374,600,5.063736439,700,1.192918181,800,3.272283316,f00,1.826617837,1100,5.100854874,1500,31.440782547,1600*993293e7
#PSRDOPA,COM2,0,86.0,COARSESTEERING,2159,68413.000,024c4000,1779,16410;9999.0000,9999.0000,9999.0000,9999.0000,9999.0000,10.0,0*8e0f37b8
#TIMEA,COM2,0,86.0,COARSESTEERING,2159,68413.000,024c4000,9924,16410;INVALID,0.000000000,0.000333564,-18.00000000000,2021,5,23,18,59,55000,WARNING*d8cdebbb
$GPGSV,1,1,00,,,,*79
#BESTXYZA,COM2,0,86.0,COARSESTEERING,2159,68413.000,024c4000,44cf,16410;INSUFFICIENT_OBS,NONE,0.0000,0.0000,0.0000,0.0000,0.0000,0.0000,INSUFFICIENT_OBS,NONE,0.0000,0.0000,0.0000,0.0000,0.0000,0.0000,"",0.000,0.000,0.000,0,0,0,0,0,00,00,00*efd9eafe
#HWMONITORA,COM2,0,86.0,COARSESTEERING,2159,68413.000,024c4000,52db,16410;9,30.036634445,100,0.129059836,200,3.272283316,600,5.061782837,700,1.196581244,800,3.269841433,f00,1.824786425,1100,5.100854874,1500,31.440782547,1600*ae03b7a1
#PSRDOPA,COM2,0,86.5,COARSESTEERING,2159,68414.000,024c4000,1779,16410;9999.0000,9999.0000,9999.0000,9999.0000,9999.0000,10.0,0*f43a557a
#TIMEA,COM2,0,86.5,COARSESTEERING,2159,68414.000,024c4000,9924,16410;INVALID,0.000000000,0.000333564,-18.00000000000,2021,5,23,18,59,56000,WARNING*b8aeff96
$GPGSV,1,1,00,,,,*79
#BESTXYZA,COM2,0,86.5,COARSESTEERING,2159,68414.000,024c4000,44cf,16410;INSUFFICIENT_OBS,NONE,0.0000,0.0000,0.0000,0.0000,0.0000,0.0000,INSUFFICIENT_OBS,NONE,0.0000,0.0000,0.0000,0.0000,0.0000,0.0000,"",0.000,0.000,0.000,0,0,0,0,0,00,00,00*7449837f
#HWMONITORA,COM2,0,86.5,COARSESTEERING,2159,68414.000,024c4000,52db,16410;9,30.036634445,100,0.129304036,200,3.271062374,600,5.061782837,700,1.192307711,800,3.269841433,f00,1.824175835,1100,5.100854874,1500,31.440782547,1600*a3b8bac4
#PSRDOPA,COM2,0,84.0,COARSESTEERING,2159,68415.000,024c4000,1779,16410;9999.0000,9999.0000,9999.0000,9999.0000,9999.0000,10.0,0*e1593c30
#TIMEA,COM2,0,84.0,COARSESTEERING,2159,68415.000,024c4000,9924,16410;INVALID,0.000000000,0.000333564,-18.00000000000,2021,5,23,18,59,57000,WARNING*c3e7ca80
$GPGSV,1,1,00,,,,*79
#BESTXYZA,COM2,0,84.0,COARSESTEERING,2159,68415.000,024c4000,44cf,16410;INSUFFICIENT_OBS,NONE,0.0000,0.0000,0.0000,0.0000,0.0000,0.0000,INSUFFICIENT_OBS,NONE,0.0000,0.0000,0.0000,0.0000,0.0000,0.0000,"",0.000,0.000,0.000,0,0,0,0,0,00,00,00*79ab5df0
#HWMONITORA,COM2,0,84.0,COARSESTEERING,2159,68415.000,024c4000,52db,16410;9,30.036634445,100,0.129548237,200,3.269841433,600,5.061782837,700,1.193528652,800,3.269841433,f00,1.834554434,1100,5.100854874,1500,31.440782547,1600*73510117
#PSRDOPA,COM2,0,84.0,COARSESTEERING,2159,68416.000,024c4000,1779,16410;9999.0000,9999.0000,9999.0000,9999.0000,9999.0000,10.0,0*618a19be
#TIMEA,COM2,0,84.0,COARSESTEERING,2159,68416.000,024c4000,9924,16410;INVALID,0.000000000,0.000333564,-18.00000000000,2021,5,23,18,59,58000,WARNING*a81f2bac
$GPGSV,1,1,00,,,,*79
#BESTXYZA,COM2,0,84.0,COARSESTEERING,2159,68416.000,024c4000,44cf,16410;INSUFFICIENT_OBS,NONE,0.0000,0.0000,0.0000,0.0000,0.0000,0.0000,INSUFFICIENT_OBS,NONE,0.0000,0.0000,0.0000,0.0000,0.0000,0.0000,"",0.000,0.000,0.000,0,0,0,0,0,00,00,00*0df13afc
#HWMONITORA,COM2,0,84.0,COARSESTEERING,2159,68416.000,024c4000,52db,16410;9,30.036634445,100,0.129426137,200,3.269841433,600,5.061782837,700,1.194139242,800,3.272283316,f00,1.830891371,1100,5.098901272,1500,31.440782547,1600*a9e79274
#PSRDOPA,COM2,0,87.5,COARSESTEERING,2159,68417.000,024c4000,1779,16410;9999.0000,9999.0000,9999.0000,9999.0000,9999.0000,10.0,0*c39150be
#TIMEA,COM2,0,87.5,COARSESTEERING,2159,68417.000,024c4000,9924,16410;INVALID,0.000000000,0.000333564,-18.00000000000,2021,5,23,18,59,59000,WARNING*b1b2bf35
$GPGSV,1,1,00,,,,*79
#BESTXYZA,COM2,0,87.5,COARSESTEERING,2159,68417.000,024c4000,44cf,16410;INSUFFICIENT_OBS,NONE,0.0000,0.0000,0.0000,0.0000,0.0000,0.0000,INSUFFICIENT_OBS,NONE,0.0000,0.0000,0.0000,0.0000,0.0000,0.0000,"",0.000,0.000,0.000,0,0,0,0,0,00,00,00*3f70d8f8
#HWMONITORA,COM2,0,87.5,COARSESTEERING,2159,68417.000,024c4000,52db,16410;9,30.036634445,100,0.129304036,200,3.269841433,600,5.061782837,700,1.192918181,800,3.272283316,f00,1.827228308,1100,5.100854874,1500,31.440782547,1600*db435f0e
#PSRDOPA,COM2,0,87.5,COARSESTEERING,2159,68418.000,024c4000,1779,16410;9999.0000,9999.0000,9999.0000,9999.0000,9999.0000,10.0,0*2d9de9cb
#TIMEA,COM2,0,87.5,COARSESTEERING,2159,68418.000,024c4000,9924,16410;INVALID,0.000000000,0.000333564,-18.00000000000,2021,5,23,19,0,0,WARNING*d4fba430
$GPGSV,1,1,00,,,,*79
#BESTXYZA,COM2,0,87.5,COARSESTEERING,2159,68418.000,024c4000,44cf,16410;INSUFFICIENT_OBS,NONE,0.0000,0.0000,0.0000,0.0000,0.0000,0.0000,INSUFFICIENT_OBS,NONE,0.0000,0.0000,0.0000,0.0000,0.0000,0.0000,"",0.000,0.000,0.000,0,0,0,0,0,00,00,00*41322585
#HWMONITORA,COM2,0,87.5,COARSESTEERING,2159,68418.000,024c4000,52db,16410;9,30.036634445,100,0.129426137,200,3.269841433,600,5.061782837,700,1.193528652,800,3.271062374,f00,1.830891371,1100,5.100854874,1500,31.440782547,1600*637b1375
#PSRDOPA,COM2,0,87.5,COARSESTEERING,2159,68419.000,024c4000,1779,16410;9999.0000,9999.0000,9999.0000,9999.0000,9999.0000,10.0,0*e4fc088e
#TIMEA,COM2,0,87.5,COARSESTEERING,2159,68419.000,024c4000,9924,16410;INVALID,0.000000000,0.000333564,-18.00000000000,2021,5,23,19,0,1000,WARNING*27d0f8d2
$GPGSV,1,1,00,,,,*79
#BESTXYZA,COM2,0,87.5,COARSESTEERING,2159,68419.000,024c4000,44cf,16410;INSUFFICIENT_OBS,NONE,0.0000,0.0000,0.0000,0.0000,0.0000,0.0000,INSUFFICIENT_OBS,NONE,0.0000,0.0000,0.0000,0.0000,0.0000,0.0000,"",0.000,0.000,0.000,0,0,0,0,0,00,00,00*dbd4fabe
#HWMONITORA,COM2,0,87.5,COARSESTEERING,2159,68419.000,024c4000,52db,16410;9,30.036634445,100,0.129304036,200,3.273504257,600,5.061782837,700,1.194139242,800,3.271062374,f00,1.829059839,1100,5.100854874,1500,31.440782547,1600*d319e504
#PSRDOPA,COM2,0,85.5,COARSESTEERING,2159,68420.000,024c4000,1779,16410;9999.0000,9999.0000,9999.0000,9999.0000,9999.0000,10.0,0*6f26c771
#TIMEA,COM2,0,85.5,COARSESTEERING,2159,68420.000,024c4000,9924,16410;INVALID,0.000000000,0.000333564,-18.00000000000,2021,5,23,19,0,2000,WARNING*d706d972
$GPGSV,1,1,00,,,,*79
#BESTXYZA,COM2,0,85.5,COARSESTEERING,2159,68420.000,024c4000,44cf,16410;INSUFFICIENT_OBS,NONE,0.0000,0.0000,0.0000,0.0000,0.0000,0.0000,INSUFFICIENT_OBS,NONE,0.0000,0.0000,0.0000,0.0000,0.0000,0.0000,"",0.000,0.000,0.000,0,0,0,0,0,00,00,00*3a26a681
#HWMONITORA,COM2,0,85.5,COARSESTEERING,2159,68420.000,024c4000,52db,16410;9,30.036634445,100,0.129304036,200,3.268620491,600,5.061782837,700,1.193528652,800,3.272283316,f00,1.821123362,1100,5.100854874,1500,31.440782547,1600*e89fab52
#PSRDOPA,COM2,0,85.5,COARSESTEERING,2159,68421.000,024c4000,1779,16410;9999.0000,9999.0000,9999.0000,9999.0000,9999.0000,10.0,0*a6472634
#TIMEA,COM2,0,85.5,COARSESTEERING,2159,68421.000,024c4000,9924,16410;INVALID,0.000000000,0.000333564,-18.00000000000,2021,5,23,19,0,3000,WARNING*c268e522
$GPGSV,1,1,00,,,,*79
#BESTXYZA,COM2,0,85.5,COARSESTEERING,2159,68421.000,024c4000,44cf,16410;INSUFFICIENT_OBS,NONE,0.0000,0.0000,0.0000,0.0000,0.0000,0.0000,INSUFFICIENT_OBS,NONE,0.0000,0.0000,0.0000,0.0000,0.0000,0.0000,"",0.000,0.000,0.000,0,0,0,0,0,00,00,00*a0c079ba
#HWMONITORA,COM2,0,85.5,COARSESTEERING,2159,68421.000,024c4000,52db,16410;9,30.036634445,100,0.129426137,200,3.269841433,600,5.061782837,700,1.191697240,800,3.271062374,f00,1.826617837,1100,5.100854874,1500,31.440782547,1600*de1bb139
#PSRDOPA,COM2,0,83.5,COARSESTEERING,2159,68422.000,024c4000,1779,16410;9999.0000,9999.0000,9999.0000,9999.0000,9999.0000,10.0,0*2366ce84
#TIMEA,COM2,0,83.5,COARSESTEERING,2159,68422.000,024c4000,9924,16410;INVALID,0.000000000,0.000333564,-18.00000000000,2021,5,23,19,0,4000,WARNING*c877d065
$GPGSV,1,1,00,,,,*79
#BESTXYZA,COM2,0,83.5,COARSESTEERING,2159,68422.000,024c4000,44cf,16410;INSUFFICIENT_OBS,NONE,0.0000,0.0000,0.0000,0.0000,0.0000,0.0000,INSUFFICIENT_OBS,NONE,0.0000,0.0000,0.0000,0.0000,0.0000,0.0000,"",0.000,0.000,0.000,0,0,0,0,0,00,00,00*57d0958c
#HWMONITORA,COM2,0,83.5,COARSESTEERING,2159,68422.000,024c4000,52db,16410;9,30.036634445,100,0.129426137,200,3.272283316,600,5.061782837,700,1.193528652,800,3.272283316,f00,1.829059839,1100,5.098901272,1500,31.440782547,1600*d5b32017
#PSRDOPA,COM2,0,83.5,COARSESTEERING,2159,68423.000,024c4000,1779,16410;9999.0000,9999.0000,9999.0000,9999.0000,9999.0000,10.0,0*ea072fc1
#TIMEA,COM2,0,83.5,COARSESTEERING,2159,68423.000,024c4000,9924,16410;INVALID,0.000000000,0.000333564,-18.00000000000,2021,5,23,19,0,5000,WARNING*dd19ec35

<OK
[COM2]$GPGSV,1,1,00,,,,*79
#BESTXYZA,COM2,0,83.5,COARSESTEERING,2159,68423.000,024c4000,44cf,16410;INSUFFICIENT_OBS,NONE,0.0000,0.0000,0.0000,0.0000,0.0000,0.0000,INSUFFICIENT_OBS,NONE,0.0000,0.0000,0.0000,0.0000,0.0000,0.0000,"",0.000,0.000,0.000,0,0,0,0,0,00,00,00*cd364ab7
#HWMONITORA,COM2,0,83.5,COARSESTEERING,2159,68423.000,024c4000,52db,16410;9,30.036634445,100,0.129304036,200,3.272283316,600,5.063736439,700,1.192307711,800,3.272283316,f00,1.837606907,1100,5.100854874,1500,31.440782547,1600*1cd2b6d4
#PSRDOPA,COM2,0,86.5,COARSESTEERING,2159,68424.000,024c4000,1779,16410;9999.0000,9999.0000,9999.0000,9999.0000,9999.0000,10.0,0*feba2878
#TIMEA,COM2,0,86.5,COARSESTEERING,2159,68424.000,024c4000,9924,16410;INVALID,0.000000000,0.000333564,-18.00000000000,2021,5,23,19,0,6000,WARNING*99eb8d56
$GPGSV,1,1,00,,,,*79
#BESTXYZA,COM2,0,86.5,COARSESTEERING,2159,68424.000,024c4000,44cf,16410;INSUFFICIENT_OBS,NONE,0.0000,0.0000,0.0000,0.0000,0.0000,0.0000,INSUFFICIENT_OBS,NONE,0.0000,0.0000,0.0000,0.0000,0.0000,0.0000,"",0.000,0.000,0.000,0,0,0,0,0,00,00,00*7d8b9533
#HWMONITORA,COM2,0,86.5,COARSESTEERING,2159,68424.000,024c4000,52db,16410;9,30.036634445,100,0.129426137,200,3.268620491,600,5.061782837,700,1.192918181,800,3.268620491,f00,1.838217378,1100,5.100854874,1500,31.440782547,1600*a2b201f5
#PSRDOPA,COM2,0,86.0,COARSESTEERING,2159,68425.000,024c4000,1779,16410;9999.0000,9999.0000,9999.0000,9999.0000,9999.0000,10.0,0*5e5807e7
#TIMEA,COM2,0,86.0,COARSESTEERING,2159,68425.000,024c4000,9924,16410;INVALID,0.000000000,0.000333564,-18.00000000000,2021,5,23,19,0,7000,WARNING*352c325d
$GPGSV,1,1,00,,,,*79
#BESTXYZA,COM2,0,86.0,COARSESTEERING,2159,68425.000,024c4000,44cf,16410;INSUFFICIENT_OBS,NONE,0.0000,0.0000,0.0000,0.0000,0.0000,0.0000,INSUFFICIENT_OBS,NONE,0.0000,0.0000,0.0000,0.0000,0.0000,0.0000,"",0.000,0.000,0.000,0,0,0,0,0,00,00,00*0eaf32aa
#HWMONITORA,COM2,0,86.0,COARSESTEERING,2159,68425.000,024c4000,52db,16410;9,30.036634445,100,0.129304036,200,3.271062374,600,5.061782837,700,1.195360184,800,3.271062374,f00,1.829670429,1100,5.100854874,1500,31.440782547,1600*3ec24737
#PSRDOPA,COM2,0,86.0,COARSESTEERING,2159,68426.000,024c4000,1779,16410;9999.0000,9999.0000,9999.0000,9999.0000,9999.0000,10.0,0*de8b2269
#TIMEA,COM2,0,86.0,COARSESTEERING,2159,68426.000,024c4000,9924,16410;INVALID,0.000000000,0.000333564,-18.00000000000,2021,5,23,19,0,8000,WARNING*0f943b2c
$GPGSV,1,1,00,,,,*79
#BESTXYZA,COM2,0,86.0,COARSESTEERING,2159,68426.000,024c4000,44cf,16410;INSUFFICIENT_OBS,NONE,0.0000,0.0000,0.0000,0.0000,0.0000,0.0000,INSUFFICIENT_OBS,NONE,0.0000,0.0000,0.0000,0.0000,0.0000,0.0000,"",0.000,0.000,0.000,0,0,0,0,0,00,00,00*7af555a6
#HWMONITORA,COM2,0,86.0,COARSESTEERING,2159,68426.000,024c4000,52db,16410;9,30.036634445,100,0.129304036,200,3.273504257,600,5.061782837,700,1.191086650,800,3.271062374,f00,1.828449368,1100,5.100854874,1500,31.440782547,1600*b2751da9
#PSRDOPA,COM2,0,86.0,COARSESTEERING,2159,68427.000,024c4000,1779,16410;9999.0000,9999.0000,9999.0000,9999.0000,9999.0000,10.0,0*17eac32c
#TIMEA,COM2,0,86.0,COARSESTEERING,2159,68427.000,024c4000,9924,16410;INVALID,0.000000000,0.000333564,-18.00000000000,2021,5,23,19,0,9000,WARNING*1afa077c
$GPGSV,1,1,00,,,,*79
#BESTXYZA,COM2,0,86.0,COARSESTEERING,2159,68427.000,024c4000,44cf,16410;INSUFFICIENT_OBS,NONE,0.0000,0.0000,0.0000,0.0000,0.0000,0.0000,INSUFFICIENT_OBS,NONE,0.0000,0.0000,0.0000,0.0000,0.0000,0.0000,"",0.000,0.000,0.000,0,0,0,0,0,00,00,00*e0138a9d
#HWMONITORA,COM2,0,86.0,COARSESTEERING,2159,68427.000,024c4000,52db,16410;9,30.036634445,100,0.129304036,200,3.272283316,600,5.061782837,700,1.191697240,800,3.272283316,f00,1.830280900,1100,5.100854874,1500,31.440782547,1600*f4a98c0b
#PSRDOPA,COM2,0,85.0,COARSESTEERING,2159,68428.000,024c4000,1779,16410;9999.0000,9999.0000,9999.0000,9999.0000,9999.0000,10.0,0*fb1f1cc6
#TIMEA,COM2,0,85.0,COARSESTEERING,2159,68428.000,024c4000,9924,16410;INVALID,0.000000000,0.000333564,-18.00000000000,2021,5,23,19,0,10000,WARNING*7676a4f0
$GPGSV,1,1,00,,,,*79
#BESTXYZA,COM2,0,85.0,COARSESTEERING,2159,68428.000,024c4000,44cf,16410;INSUFFICIENT_OBS,NONE,0.0000,0.0000,0.0000,0.0000,0.0000,0.0000,INSUFFICIENT_OBS,NONE,0.0000,0.0000,0.0000,0.0000,0.0000,0.0000,"",0.000,0.000,0.000,0,0,0,0,0,00,00,00*dff4327d
#HWMONITORA,COM2,0,85.0,COARSESTEERING,2159,68428.000,024c4000,52db,16410;9,30.036634445,100,0.129304036,200,3.269841433,600,5.061782837,700,1.192307711,800,3.269841433,f00,1.829670429,1100,5.098901272,1500,31.440782547,1600*b7a42ebf
#PSRDOPA,COM2,0,85.0,COARSESTEERING,2159,68429.000,024c4000,1779,16410;9999.0000,9999.0000,9999.0000,9999.0000,9999.0000,10.0,0*327efd83
#TIMEA,COM2,0,85.0,COARSESTEERING,2159,68429.000,024c4000,9924,16410;INVALID,0.000000000,0.000333564,-18.00000000000,2021,5,23,19,0,11000,WARNING*5b3b0ed2
$GPGSV,1,1,00,,,,*79
#BESTXYZA,COM2,0,85.0,COARSESTEERING,2159,68429.000,024c4000,44cf,16410;INSUFFICIENT_OBS,NONE,0.0000,0.0000,0.0000,0.0000,0.0000,0.0000,INSUFFICIENT_OBS,NONE,0.0000,0.0000,0.0000,0.0000,0.0000,0.0000,"",0.000,0.000,0.000,0,0,0,0,0,00,00,00*4512ed46
#HWMONITORA,COM2,0,85.0,COARSESTEERING,2159,68429.000,024c4000,52db,16410;9,30.036634445,100,0.129548237,200,3.269841433,600,5.061782837,700,1.193528652,800,3.271062374,f00,1.830891371,1100,5.100854874,1500,31.440782547,1600*ceef01ad
#PSRDOPA,COM2,0,85.5,COARSESTEERING,2159,68430.000,024c4000,1779,16410;9999.0000,9999.0000,9999.0000,9999.0000,9999.0000,10.0,0*6959138f
#TIMEA,COM2,0,85.5,COARSESTEERING,2159,68430.000,024c4000,9924,16410;INVALID,0.000000000,0.000333564,-18.00000000000,2021,5,23,19,0,12000,WARNING*d986eff4
$GPGSV,1,1,00,,,,*79
#BESTXYZA,COM2,0,85.5,COARSESTEERING,2159,68430.000,024c4000,44cf,16410;INSUFFICIENT_OBS,NONE,0.0000,0.0000,0.0000,0.0000,0.0000,0.0000,INSUFFICIENT_OBS,NONE,0.0000,0.0000,0.0000,0.0000,0.0000,0.0000,"",0.000,0.000,0.000,0,0,0,0,0,00,00,00*8bb7a97a
#HWMONITORA,COM2,0,85.5,COARSESTEERING,2159,68430.000,024c4000,52db,16410;9,30.036634445,100,0.129181936,200,3.271062374,600,5.061782837,700,1.192918181,800,3.269841433,f00,1.821123362,1100,5.100854874,1500,31.440782547,1600*4edb4236
#PSRDOPA,COM2,0,85.5,COARSESTEERING,2159,68431.000,024c4000,1779,16410;9999.0000,9999.0000,9999.0000,9999.0000,9999.0000,10.0,0*a038f2ca
#TIMEA,COM2,0,85.5,COARSESTEERING,2159,68431.000,024c4000,9924,16410;INVALID,0.000000000,0.000333564,-18.00000000000,2021,5,23,19,0,13000,WARNING*f4cb45d6
$GPGSV,1,1,00,,,,*79
#BESTXYZA,COM2,0,85.5,COARSESTEERING,2159,68431.000,024c4000,44cf,16410;INSUFFICIENT_OBS,NONE,0.0000,0.0000,0.0000,0.0000,0.0000,0.0000,INSUFFICIENT_OBS,NONE,0.0000,0.0000,0.0000,0.0000,0.0000,0.0000,"",0.000,0.000,0.000,0,0,0,0,0,00,00,00*11517641
#HWMONITORA,COM2,0,85.5,COARSESTEERING,2159,68431.000,024c4000,52db,16410;9,30.036634445,100,0.129426137,200,3.272283316,600,5.061782837,700,1.194139242,800,3.272283316,f00,1.827228308,1100,5.100854874,1500,31.440782547,1600*a10b55d2
#PSRDOPA,COM2,0,87.0,COARSESTEERING,2159,68432.000,024c4000,1779,16410;9999.0000,9999.0000,9999.0000,9999.0000,9999.0000,10.0,0*fce95f4b
#TIMEA,COM2,0,87.0,COARSESTEERING,2159,68432.000,024c4000,9924,16410;INVALID,0.000000000,0.000333564,-18.00000000000,2021,5,23,19,0,14000,WARNING*0f630188
$GPGSV,1,1,00,,,,*79
#BESTXYZA,COM2,0,87.0,COARSESTEERING,2159,68432.000,024c4000,44cf,16410;INSUFFICIENT_OBS,NONE,0.0000,0.0000,0.0000,0.0000,0.0000,0.0000,INSUFFICIENT_OBS,NONE,0.0000,0.0000,0.0000,0.0000,0.0000,0.0000,"",0.000,0.000,0.000,0,0,0,0,0,00,00,00*f20f10f9
#HWMONITORA,COM2,0,87.0,COARSESTEERING,2159,68432.000,024c4000,52db,16410;9,30.647134781,100,0.129304036,200,3.271062374,600,5.061782837,700,1.193528652,800,3.272283316,f00,1.819291830,1100,5.098901272,1500,32.051284790,1600*9b9f71ab
#PSRDOPA,COM2,0,87.0,COARSESTEERING,2159,68433.000,024c4000,1779,16410;9999.0000,9999.0000,9999.0000,9999.0000,9999.0000,10.0,0*3588be0e
#TIMEA,COM2,0,87.0,COARSESTEERING,2159,68433.000,024c4000,9924,16410;INVALID,0.000000000,0.000333564,-18.00000000000,2021,5,23,19,0,15000,WARNING*222eabaa
$GPGSV,1,1,00,,,,*79
#BESTXYZA,COM2,0,87.0,COARSESTEERING,2159,68433.000,024c4000,44cf,16410;INSUFFICIENT_OBS,NONE,0.0000,0.0000,0.0000,0.0000,0.0000,0.0000,INSUFFICIENT_OBS,NONE,0.0000,0.0000,0.0000,0.0000,0.0000,0.0000,"",0.000,0.000,0.000,0,0,0,0,0,00,00,00*68e9cfc2
#HWMONITORA,COM2,0,87.0,COARSESTEERING,2159,68433.000,024c4000,52db,16410;9,30.647134781,100,0.129304036,200,3.271062374,600,5.061782837,700,1.193528652,800,3.272283316,f00,1.819902420,1100,5.100854874,1500,32.051284790,1600*d0f14974
#PSRDOPA,COM2,0,88.0,COARSESTEERING,2159,68434.000,024c4000,1779,16410;9999.0000,9999.0000,9999.0000,9999.0000,9999.0000,10.0,0*2f22eef5
#TIMEA,COM2,0,88.0,COARSESTEERING,2159,68434.000,024c4000,9924,16410;INVALID,0.000000000,0.000333564,-18.00000000000,2021,5,23,19,0,16000,WARNING*596ef30e
$GPGSV,1,1,00,,,,*79
#BESTXYZA,COM2,0,88.0,COARSESTEERING,2159,68434.000,024c4000,44cf,16410;INSUFFICIENT_OBS,NONE,0.0000,0.0000,0.0000,0.0000,0.0000,0.0000,INSUFFICIENT_OBS,NONE,0.0000,0.0000,0.0000,0.0000,0.0000,0.0000,"",0.000,0.000,0.000,0,0,0,0,0,00,00,00*86fa8b49
#HWMONITORA,COM2,0,88.0,COARSESTEERING,2159,68434.000,024c4000,52db,16410;9,30.647134781,100,0.129426137,200,3.272283316,600,5.061782837,700,1.189255238,800,3.271062374,f00,1.836996317,1100,5.100854874,1500,32.051284790,1600*d2f33206
#PSRDOPA,COM2,0,83.5,COARSESTEERING,2159,68435.000,024c4000,1779,16410;9999.0000,9999.0000,9999.0000,9999.0000,9999.0000,10.0,0*36afb662
#TIMEA,COM2,0,83.5,COARSESTEERING,2159,68435.000,024c4000,9924,16410;INVALID,0.000000000,0.000333564,-18.00000000000,2021,5,23,19,0,17000,WARNING*d4740c96
$GPGSV,1,1,00,,,,*79
#BESTXYZA,COM2,0,83.5,COARSESTEERING,2159,68435.000,024c4000,44cf,16410;INSUFFICIENT_OBS,NONE,0.0000,0.0000,0.0000,0.0000,0.0000,0.0000,INSUFFICIENT_OBS,NONE,0.0000,0.0000,0.0000,0.0000,0.0000,0.0000,"",0.000,0.000,0.000,0,0,0,0,0,00,00,00*94138b54
#HWMONITORA,COM2,0,83.5,COARSESTEERING,2159,68435.000,024c4000,52db,16410;9,30.647134781,100,0.129059836,200,3.269841433,600,5.061782837,700,1.192918181,800,3.272283316,f00,1.836385846,1100,5.100854874,1500,32.051284790,1600*a4ad83a2
#PSRDOPA,COM2,0,83.5,COARSESTEERING,2159,68436.000,024c4000,1779,16410;9999.0000,9999.0000,9999.0000,9999.0000,9999.0000,10.0,0*b67c93ec
#TIMEA,COM2,0,83.5,COARSESTEERING,2159,68436.000,024c4000,9924,16410;INVALID,0.000000000,0.000333564,-18.00000000000,2021,5,23,19,0,18000,WARNING*a6a8bf71
$GPGSV,1,1,00,,,,*79
#BESTXYZA,COM2,0,83.5,COARSESTEERING,2159,68436.000,024c4000,44cf,16410;INSUFFICIENT_OBS,NONE,0.0000,0.0000,0.0000,0.0000,0.0000,0.0000,INSUFFICIENT_OBS,NONE,0.0000,0.0000,0.0000,0.0000,0.0000,0.0000,"",0.000,0.000,0.000,0,0,0,0,0,00,00,00*e049ec58
#HWMONITORA,COM2,0,83.5,COARSESTEERING,2159,68436.000,024c4000,52db,16410;9,30.647134781,100,0.129181936,200,3.271062374,600,5.061782837,700,1.192918181,800,3.272283316,f00,1.835775375,1100,5.098901272,1500,32.051284790,1600*ff2becbb
#PSRDOPA,COM2,0,84.5,COARSESTEERING,2159,68437.000,024c4000,1779,16410;9999.0000,9999.0000,9999.0000,9999.0000,9999.0000,10.0,0*cd979fdd
#TIMEA,COM2,0,84.5,COARSESTEERING,2159,68437.000,024c4000,9924,16410;INVALID,0.000000000,0.000333564,-18.00000000000,2021,5,23,19,0,19000,WARNING*27d0a4c7
$GPGSV,1,1,00,,,,*79
#BESTXYZA,COM2,0,84.5,COARSESTEERING,2159,68437.000,024c4000,44cf,16410;INSUFFICIENT_OBS,NONE,0.0000,0.0000,0.0000,0.0000,0.0000,0.0000,INSUFFICIENT_OBS,NONE,0.0000,0.0000,0.0000,0.0000,0.0000,0.0000,"",0.000,0.000,0.000,0,0,0,0,0,00,00,00*c68684d2
#HWMONITORA,COM2,0,84.5,COARSESTEERING,2159,68437.000,024c4000,52db,16410;9,30.647134781,100,0.129181936,200,3.271062374,600,5.061782837,700,1.192307711,800,3.271062374,f00,1.818070889,1100,5.100854874,1500,32.051284790,1600*75616af9
#PSRDOPA,COM2,0,84.5,COARSESTEERING,2159,68438.000,024c4000,1779,16410;9999.0000,9999.0000,9999.0000,9999.0000,9999.0000,10.0,0*239b26a8
#TIMEA,COM2,0,84.5,COARSESTEERING,2159,68438.000,024c4000,9924,16410;INVALID,0.000000000,0.000333564,-18.00000000000,2021,5,23,19,0,20000,WARNING*06db6c56
$GPGSV,1,1,00,,,,*79
#BESTXYZA,COM2,0,84.5,COARSESTEERING,2159,68438.000,024c4000,44cf,16410;INSUFFICIENT_OBS,NONE,0.0000,0.0000,0.0000,0.0000,0.0000,0.0000,INSUFFICIENT_OBS,NONE,0.0000,0.0000,0.0000,0.0000,0.0000,0.0000,"",0.000,0.000,0.000,0,0,0,0,0,00,00,00*b8c479af
#HWMONITORA,COM2,0,84.5,COARSESTEERING,2159,68438.000,024c4000,52db,16410;9,30.647134781,100,0.129304036,200,3.271062374,600,5.061782837,700,1.195360184,800,3.269841433,f00,1.826007366,1100,5.100854874,1500,32.051284790,1600*fd38d105
#PSRDOPA,COM2,0,87.5,COARSESTEERING,2159,68439.000,024c4000,1779,16410;9999.0000,9999.0000,9999.0000,9999.0000,9999.0000,10.0,0*e803a172
#TIMEA,COM2,0,87.5,COARSESTEERING,2159,68439.000,024c4000,9924,16410;INVALID,0.000000000,0.000333564,-18.00000000000,2021,5,23,19,0,21000,WARNING*61523690
$GPGSV,1,1,00,,,,*79
#BESTXYZA,COM2,0,87.5,COARSESTEERING,2159,68439.000,024c4000,44cf,16410;INSUFFICIENT_OBS,NONE,0.0000,0.0000,0.0000,0.0000,0.0000,0.0000,INSUFFICIENT_OBS,NONE,0.0000,0.0000,0.0000,0.0000,0.0000,0.0000,"",0.000,0.000,0.000,0,0,0,0,0,00,00,00*6387e309
#HWMONITORA,COM2,0,87.5,COARSESTEERING,2159,68439.000,024c4000,52db,16410;9,30.647134781,100,0.129181936,200,3.269841433,600,5.061782837,700,1.195360184,800,3.272283316,f00,1.833943844,1100,5.100854874,1500,32.051284790,1600*c0a4bc26
#PSRDOPA,COM2,0,88.0,COARSESTEERING,2159,68440.000,024c4000,1779,16410;9999.0000,9999.0000,9999.0000,9999.0000,9999.0000,10.0,0*af384999
#TIMEA,COM2,0,88.0,COARSESTEERING,2159,68440.000,024c4000,9924,16410;INVALID,0.000000000,0.000333564,-18.00000000000,2021,5,23,19,0,22000,WARNING*6b911e39
$GPGSV,1,1,00,,,,*79
#BESTXYZA,COM2,0,88.0,COARSESTEERING,2159,68440.000,024c4000,44cf,16410;INSUFFICIENT_OBS,NONE,0.0000,0.0000,0.0000,0.0000,0.0000,0.0000,INSUFFICIENT_OBS,NONE,0.0000,0.0000,0.0000,0.0000,0.0000,0.0000,"",0.000,0.000,0.000,0,0,0,0,0,00,00,00*22e7de05
#HWMONITORA,COM2,0,88.0,COARSESTEERING,2159,68440.000,024c4000,52db,16410;9,30.647134781,100,0.129426137,200,3.271062374,600,5.061782837,700,1.193528652,800,3.271062374,f00,1.831501842,1100,5.100854874,1500,32.051284790,1600*e0fb8de0
#PSRDOPA,COM2,0,84.0,COARSESTEERING,2159,68441.000,024c4000,1779,16410;9999.0000,9999.0000,9999.0000,9999.0000,9999.0000,10.0,0*6dbc32a0
#TIMEA,COM2,0,84.0,COARSESTEERING,2159,68441.000,024c4000,9924,16410;INVALID,0.000000000,0.000333564,-18.00000000000,2021,5,23,19,0,23000,WARNING*b6be71ca
$GPGSV,1,1,00,,,,*79
#BESTXYZA,COM2,0,84.0,COARSESTEERING,2159,68441.000,024c4000,44cf,16410;INSUFFICIENT_OBS,NONE,0.0000,0.0000,0.0000,0.0000,0.0000,0.0000,INSUFFICIENT_OBS,NONE,0.0000,0.0000,0.0000,0.0000,0.0000,0.0000,"",0.000,0.000,0.000,0,0,0,0,0,00,00,00*65e5110b
#HWMONITORA,COM2,0,84.0,COARSESTEERING,2159,68441.000,024c4000,52db,16410;9,30.647134781,100,0.129304036,200,3.271062374,600,5.061782837,700,1.193528652,800,3.269841433,f00,1.828449368,1100,5.100854874,1500,32.051284790,1600*9a38c7d3
#PSRDOPA,COM2,0,84.0,COARSESTEERING,2159,68442.000,024c4000,1779,16410;9999.0000,9999.0000,9999.0000,9999.0000,9999.0000,10.0,0*ed6f172e
#TIMEA,COM2,0,84.0,COARSESTEERING,2159,68442.000,024c4000,9924,16410;INVALID,0.000000000,0.000333564,-18.00000000000,2021,5,23,19,0,24000,WARNING*c26eb4d3
$GPGSV,1,1,00,,,,*79
#BESTXYZA,COM2,0,84.0,COARSESTEERING,2159,68442.000,024c4000,44cf,16410;INSUFFICIENT_OBS,NONE,0.0000,0.0000,0.0000,0.0000,0.0000,0.0000,INSUFFICIENT_OBS,NONE,0.0000,0.0000,0.0000,0.0000,0.0000,0.0000,"",0.000,0.000,0.000,0,0,0,0,0,00,00,00*11bf7607
#HWMONITORA,COM2,0,84.0,COARSESTEERING,2159,68442.000,024c4000,52db,16410;9,30.647134781,100,0.129304036,200,3.271062374,600,5.061782837,700,1.197802186,800,3.272283316,f00,1.821733832,1100,5.100854874,1500,32.051284790,1600*8415e23e
#PSRDOPA,COM2,0,85.5,COARSESTEERING,2159,68443.000,024c4000,1779,16410;9999.0000,9999.0000,9999.0000,9999.0000,9999.0000,10.0,0*faf518fb
#TIMEA,COM2,0,85.5,COARSESTEERING,2159,68443.000,024c4000,9924,16410;INVALID,0.000000000,0.000333564,-18.00000000000,2021,5,23,19,0,25000,WARNING*2a9f6f52
$GPGSV,1,1,00,,,,*79
#BESTXYZA,COM2,0,85.5,COARSESTEERING,2159,68443.000,024c4000,44cf,16410;INSUFFICIENT_OBS,NONE,0.0000,0.0000,0.0000,0.0000,0.0000,0.0000,INSUFFICIENT_OBS,NONE,0.0000,0.0000,0.0000,0.0000,0.0000,0.0000,"",0.000,0.000,0.000,0,0,0,0,0,00,00,00*5df8ed15
#HWMONITORA,COM2,0,85.5,COARSESTEERING,2159,68443.000,024c4000,52db,16410;9,30.647134781,100,0.129426137,200,3.269841433,600,5.061782837,700,1.192918181,800,3.271062374,f00,1.832722902,1100,5.100854874,1500,32.051284790,1600*d4c42a29
#PSRDOPA,COM2,0,86.5,COARSESTEERING,2159,68444.000,024c4000,1779,16410;9999.0000,9999.0000,9999.0000,9999.0000,9999.0000,10.0,0*ebbad27c
#TIMEA,COM2,0,86.5,COARSESTEERING,2159,68444.000,024c4000,9924,16410;INVALID,0.000000000,0.000333564,-18.00000000000,2021,5,23,19,0,26000,WARNING*a1bdf227
$GPGSV,1,1,00,,,,*79
#BESTXYZA,COM2,0,86.5,COARSESTEERING,2159,68444.000,024c4000,44cf,16410;INSUFFICIENT_OBS,NONE,0.0000,0.0000,0.0000,0.0000,0.0000,0.0000,INSUFFICIENT_OBS,NONE,0.0000,0.0000,0.0000,0.0000,0.0000,0.0000,"",0.000,0.000,0.000,0,0,0,0,0,00,00,00*6e0fb9ab
#HWMONITORA,COM2,0,86.5,COARSESTEERING,2159,68444.000,024c4000,52db,16410;9,30.647134781,100,0.129304036,200,3.271062374,600,5.061782837,700,1.192918181,800,3.271062374,f00,1.834554434,1100,5.100854874,1500,32.051284790,1600*b9b2acb5
#PSRDOPA,COM2,0,86.5,COARSESTEERING,2159,68445.000,024c4000,1779,16410;9999.0000,9999.0000,9999.0000,9999.0000,9999.0000,10.0,0*22db3339
#TIMEA,COM2,0,86.5,COARSESTEERING,2159,68445.000,024c4000,9924,16410;INVALID,0.000000000,0.000333564,-18.00000000000,2021,5,23,19,0,27000,WARNING*8cf05805
$GPGSV,1,1,00,,,,*79
#BESTXYZA,COM2,0,86.5,COARSESTEERING,2159,68445.000,024c4000,44cf,16410;INSUFFICIENT_OBS,NONE,0.0000,0.0000,0.0000,0.0000,0.0000,0.0000,INSUFFICIENT_OBS,NONE,0.0000,0.0000,0.0000,0.0000,0.0000,0.0000,"",0.000,0.000,0.000,0,0,0,0,0,00,00,00*f4e96690
#HWMONITORA,COM2,0,86.5,COARSESTEERING,2159,68445.000,024c4000,52db,16410;9,30.647134781,100,0.129181936,200,3.272283316,600,5.061782837,700,1.193528652,800,3.269841433,f00,1.849816918,1100,5.100854874,1500,32.051284790,1600*849c4879
#PSRDOPA,COM2,0,86.5,COARSESTEERING,2159,68446.000,024c4000,1779,16410;9999.0000,9999.0000,9999.0000,9999.0000,9999.0000,10.0,0*a20816b7
#TIMEA,COM2,0,86.5,COARSESTEERING,2159,68446.000,024c4000,9924,16410;INVALID,0.000000000,0.000333564,-18.00000000000,2021,5,23,19,0,28000,WARNING*fe2cebe2
$GPGSV,1,1,00,,,,*79
#BESTXYZA,COM2,0,86.5,COARSESTEERING,2159,68446.000,024c4000,44cf,16410;INSUFFICIENT_OBS,NONE,0.0000,0.0000,0.0000,0.0000,0.0000,0.0000,INSUFFICIENT_OBS,NONE,0.0000,0.0000,0.0000,0.0000,0.0000,0.0000,"",0.000,0.000,0.000,0,0,0,0,0,00,00,00*80b3019c
#HWMONITORA,COM2,0,86.5,COARSESTEERING,2159,68446.000,024c4000,52db,16410;9,30.647134781,100,0.129304036,200,3.272283316,600,5.061782837,700,1.192918181,800,3.269841433,f00,1.836996317,1100,5.100854874,1500,32.051284790,1600*58566161
#PSRDOPA,COM2,0,85.5,COARSESTEERING,2159,68447.000,024c4000,1779,16410;9999.0000,9999.0000,9999.0000,9999.0000,9999.0000,10.0,0*6990916d
#TIMEA,COM2,0,85.5,COARSESTEERING,2159,68447.000,024c4000,9924,16410;INVALID,0.000000000,0.000333564,-18.00000000000,2021,5,23,19,0,29000,WARNING*99a5b124
$GPGSV,1,1,00,,,,*79
#BESTXYZA,COM2,0,85.5,COARSESTEERING,2159,68447.000,024c4000,44cf,16410;INSUFFICIENT_OBS,NONE,0.0000,0.0000,0.0000,0.0000,0.0000,0.0000,INSUFFICIENT_OBS,NONE,0.0000,0.0000,0.0000,0.0000,0.0000,0.0000,"",0.000,0.000,0.000,0,0,0,0,0,00,00,00*5bf09b3a
#HWMONITORA,COM2,0,85.5,COARSESTEERING,2159,68447.000,024c4000,52db,16410;9,30.647134781,100,0.129304036,200,3.269841433,600,5.061782837,700,1.197191715,800,3.269841433,f00,1.826617837,1100,5.100854874,1500,32.051284790,1600*a862aab9
#PSRDOPA,COM2,0,85.5,COARSESTEERING,2159,68448.000,024c4000,1779,16410;9999.0000,9999.0000,9999.0000,9999.0000,9999.0000,10.0,0*879c2818
#TIMEA,COM2,0,85.5,COARSESTEERING,2159,68448.000,024c4000,9924,16410;INVALID,0.000000000,0.000333564,-18.00000000000,2021,5,23,19,0,30000,WARNING*d8f2ccfe
$GPGSV,1,1,00,,,,*79
#BESTXYZA,COM2,0,85.5,COARSESTEERING,2159,68448.000,024c4000,44cf,16410;INSUFFICIENT_OBS,NONE,0.0000,0.0000,0.0000,0.0000,0.0000,0.0000,INSUFFICIENT_OBS,NONE,0.0000,0.0000,0.0000,0.0000,0.0000,0.0000,"",0.000,0.000,0.000,0,0,0,0,0,00,00,00*25b26647
#HWMONITORA,COM2,0,85.5,COARSESTEERING,2159,68448.000,024c4000,52db,16410;9,30.647134781,100,0.129181936,200,3.272283316,600,5.061782837,700,1.194139242,800,3.272283316,f00,1.827228308,1100,5.100854874,1500,32.051284790,1600*78f0b33d
#PSRDOPA,COM2,0,87.0,COARSESTEERING,2159,68449.000,024c4000,1779,16410;9999.0000,9999.0000,9999.0000,9999.0000,9999.0000,10.0,0*92ff4152
#TIMEA,COM2,0,87.0,COARSESTEERING,2159,68449.000,024c4000,9924,16410;INVALID,0.000000000,0.000333564,-18.00000000000,2021,5,23,19,0,31000,WARNING*7ac7e79b
$GPGSV,1,1,00,,,,*79
